     3.04           OBSERVATION DATA    M (MIXED)           RINEX VERSION / TYPE
sample_generator    Educational         20240615 142345 UTC PGM / RUN BY / DATE 
Sample RINEX 3.04 observation file for educational use      COMMENT             
Generated by Claude for Hadi's 6-month GNSS C++ plan        COMMENT             
CERI                                                        MARKER NAME         
99999M001                                                   MARKER NUMBER       
GEODETIC                                                    MARKER TYPE         
Hadi H. Shali     University of Memphis                     OBSERVER / AGENCY   
1234567890        TRIMBLE NETR9       5.45                  REC # / TYPE / VERS 
ABCD12345         TRM59800.00     SCIS                      ANT # / TYPE        
  -252840.2412 -4870321.3215  4106503.1234                  APPROX POSITION XYZ 
        0.0000        0.0000        0.0000                  ANTENNA: DELTA H/E/N
G    8 C1C L1C D1C S1C C2W L2W D2W S2W                      SYS / # / OBS TYPES 
    30.000                                                  INTERVAL            
  2024     6    15    14    23   45.0000000     GPS         TIME OF FIRST OBS   
  2024     6    15    14    53   44.0000000     GPS         TIME OF LAST OBS    
DBHZ                                                        SIGNAL STRENGTH UNIT
                                                            END OF HEADER       
> 2024  6 15 14 23 45.0000000  0  7
G05  22384568.396   117627789.786       -1660.736          46.047    22384568.115    91664898.076       -1295.374          43.786  
G12  23156788.892   121685700.955       -1688.172          42.580    23156789.089    94827146.146       -1316.774          38.631  
G15  24521367.661   128856372.363         535.594          47.141    24521368.204   100415103.210         417.763          43.047  
G18  25789455.844   135519999.184        2743.278          40.049    25789455.957   105607927.754        2139.757          35.506  
G21  21567889.279   113336254.738        1378.391          43.043    21567889.567    88320596.097        1075.145          39.387  
G24  22345671.332   117423391.118        2170.241          43.660    22345671.306    91505615.502        1692.788          40.977  
G25  23789011.950   125007945.091       -1603.255          36.515    23789011.876    97416101.060       -1250.539          33.421  
> 2024  6 15 14 24 15.0000000  0  8
G05  22384717.520   117628573.422        1210.922          45.253    22384717.904    91665511.488         944.519          41.651  
G12  23156938.996   121686489.741       -1380.313          48.881    23156938.916    94827759.681       -1076.644          45.908  
G15  24521517.997   128857162.356        1930.816          47.076    24521517.907   100415716.246        1506.036          42.336  
G18  25789605.252   135520784.291       -1724.241          42.488    25789605.574   105608540.425       -1344.908          40.060  
G21  21568040.506   113337049.439         233.864          46.205    21568040.148    88321212.734         182.414          43.119  
G24  22345821.250   117424178.930         -38.905          46.337    22345821.361    91506229.977         -30.346          43.857  
G25  23789161.693   125008731.951        -691.396          43.938    23789161.469    97416713.633        -539.289          40.279  
G29  24123606.684   126766193.814       -2312.690          48.272    24123606.687    98786268.151       -1803.898          45.251  
> 2024  6 15 14 24 45.0000000  0  8
G05  22384867.316   117629360.571        2722.896          48.138    22384867.286    91666123.214        2123.859          45.602  
G12  23157089.682   121687281.558       -1209.331          44.584    23157089.549    94828376.526        -943.278          40.297  
G15  24521666.978   128857945.230         182.122          35.009    24521666.951   100416326.584         142.055          30.221  
G18  25789756.503   135521579.088       -1154.915          35.869    25789757.027   105609160.616        -900.834          33.612  
G21  21568189.631   113337833.061        1563.613          46.488    21568189.867    88321825.836        1219.618          42.838  
G24  22345970.724   117424964.414        -461.172          38.177    22345970.253    91506839.691        -359.714          35.574  
G25  23789311.203   125009517.649         899.268          41.572    23789311.051    97417326.172         701.429          38.897  
G29  24123755.470   126766975.681       -1619.312          38.303    24123755.852    98786879.007       -1263.063          35.616  
> 2024  6 15 14 25 15.0000000  0  7
G05  22385017.515   117630149.837       -1571.972          45.035    22385017.550    91666738.540       -1226.138          40.228  
G12  23157237.883   121688060.334        1707.717          47.112    23157237.932    94828984.165        1332.019          43.819  
G15  24521816.895   128858733.033        1374.455          45.100    24521817.031   100416941.159        1072.075          41.893  
G18  25789904.864   135522358.732       -1508.062          37.853    25789904.566   105609764.810       -1176.288          35.017  
G21  21568339.394   113338620.065        -341.216          47.920    21568339.302    88322437.764        -266.148          42.922  
G24  22346121.071   117425754.423        2558.202          47.730    22346121.245    91507458.014        1995.397          45.089  
G25  23789461.251   125010306.105        -726.161          49.780    23789461.201    97417941.055        -566.406          46.415  
> 2024  6 15 14 25 45.0000000  0  8
G05  22385166.294   117630931.642        1700.169          44.928    22385166.100    91667346.849        1326.132          42.275  
G12  23157388.322   121688850.885       -2634.255          39.704    23157388.647    94829601.342       -2054.719          34.946  
G15  24521966.393   128859518.618          46.971          47.770    24521966.495   100417553.218          36.637          43.185  
G18  25790053.581   135523140.216         418.052          43.684    25790053.701   105610375.516         326.081          39.712  
G21  21568488.161   113339401.789       -1435.406          45.046    21568488.069    88323046.971       -1119.617          42.653  
G24  22346269.224   117426532.958        2574.110          49.036    22346269.641    91508065.688        2007.806          45.347  
G25  23789611.064   125011093.352          35.308          36.987    23789610.998    97418554.456          27.540          34.254  
G29  24124054.444   126768546.747         259.308          39.538    24124054.985    98788103.951         202.260          35.951  
> 2024  6 15 14 26 15.0000000  0  7
G05  22385314.965   117631712.917        2633.580          37.014    22385315.072    91667956.892        2054.192          33.355  
G12  23157536.095   121689627.419        1305.673          38.054    23157535.939    94830204.495        1018.425          34.588  
G15  24522115.992   128860304.728       -2446.209          41.354    24522115.988   100418165.388       -1908.043          37.040  
G18  25790202.937   135523925.043        1447.385          43.275    25790202.899   105610986.484        1128.961          41.049  
G21  21568637.994   113340189.129         273.542          47.519    21568637.846    88323660.302         213.363          45.137  
G24  22346417.807   117427313.774        1776.734          47.911    22346417.973    91508673.105        1385.852          45.162  
G25  23789759.886   125011875.395        2304.808          41.096    23789759.759    97419163.630        1797.750          36.306  
> 2024  6 15 14 26 45.0000000  0  8
G05  22385464.050   117632496.319        2288.497          35.372    22385464.027    91668566.851        1785.028          30.579  
G12  23157684.470   121690407.074        1864.496          39.002    23157684.503    94830812.867        1454.307          34.386  
G15  24522263.372   128861079.193        1899.520          41.905    24522263.190   100418768.198        1481.625          39.222  
G18  25790351.472   135524705.581       -1030.428          47.965    25790351.709   105611595.860        -803.734          44.041  
G21  21568784.010   113340956.451         217.294          49.089    21568784.605    88324261.301         169.490          46.553  
G24  22346566.530   117428095.268       -2349.585          41.518    22346566.495    91509281.297       -1832.676          37.700  
G25  23789906.656   125012646.641         459.528          38.821    23789906.651    97419765.157         358.432          34.044  
G29  24124350.374   126770101.803        1451.700          45.059    24124350.299    98789313.265        1132.326          41.067  
> 2024  6 15 14 27 15.0000000  0  8
G05  22385609.772   117633262.059       -2252.248          48.501    22385609.327    91669161.864       -1756.754          45.522  
G12  23157831.092   121691177.563       -1848.959          44.974    23157830.731    94831411.687       -1442.188          42.452  
G15  24522409.836   128861848.847        2002.351          39.558    24522409.967   100419369.251        1561.834          35.738  
G18  25790498.063   135525475.904        1053.763          42.668    25790498.269   105612196.000         821.935          38.460  
G21  21568932.078   113341734.508         983.123          44.289    21568932.694    88324867.719         766.836          41.584  
G24  22346712.964   117428864.776       -2115.876          35.693    22346713.374    91509882.775       -1650.383          31.388  
G25  23790053.298   125013417.230         454.025          45.775    23790053.072    97420364.756         354.140          43.332  
G29  24124497.896   126770876.996        2162.643          48.282    24124497.933    98789917.820        1686.862          43.870  
> 2024  6 15 14 27 45.0000000  0  7
G05  22385755.891   117634029.906        2504.820          36.820    22385756.115    91669762.969        1953.760          33.227  
G12  23157977.106   121691944.852        1531.500          41.639    23157977.357    94832012.091        1194.570          38.358  
G15  24522556.966   128862621.991       -2045.053          47.922    24522556.490   100419969.250       -1595.141          43.403  
G18  25790644.365   135526244.710         -92.418          38.589    25790643.924   105612792.488         -72.086          35.885  
G21  21569077.970   113342501.175       -2516.534          37.262    21569077.842    88325462.092       -1962.897          34.621  
G24  22346859.128   117429632.834        -204.454          35.934    22346859.276    91510480.236        -159.474          31.625  
G25  23790200.607   125014191.312        2283.940          43.635    23790199.897    97420966.002        1781.473          40.740  
> 2024  6 15 14 28 15.0000000  0  8
G05  22385902.407   117634799.805        -485.872          46.213    22385902.016    91670360.421        -378.980          43.551  
G12  23158122.759   121692710.254       -2825.851          40.042    23158122.628    94832606.984       -2204.164          37.547  
G15  24522701.401   128863380.986         733.542          35.404    24522701.097   100420561.422         572.163          33.323  
G18  25790789.489   135527007.293        -229.809          35.754    25790789.339   105613387.960        -179.251          32.774  
G21  21569223.692   113343266.893        1512.059          47.479    21569223.690    88326059.340        1179.406          45.421  
G24  22347002.568   117430386.576        -900.238          44.752    22347002.652    91511067.359        -702.186          40.489  
G25  23790345.974   125014955.195       -2877.720          37.286    23790346.287    97421565.478       -2244.622          33.594  
G29  24124789.812   126772411.009        1601.389          37.517    24124789.423    98791111.468        1249.083          35.173  
> 2024  6 15 14 28 45.0000000  0  8
G05  22386045.834   117635553.516       -2845.929          39.679    22386045.501    91670947.976       -2219.825          36.489  
G12  23158266.558   121693465.880        1143.686          44.409    23158266.972    94833198.092         892.075          39.858  
G15  24522845.396   128864137.653        2903.066          46.740    24522845.214   100421151.581        2264.392          43.628  
G18  25790933.145   135527762.188        2097.454          47.335    25790933.746   105613979.321        1636.014          43.428  
G21  21569367.973   113344025.068        -387.077          46.007    21569368.206    88326651.126        -301.920          41.582  
G24  22347148.043   117431151.036        -386.553          45.965    22347147.975    91511662.489        -301.511          41.473  
G25  23790490.485   125015714.591       -1536.819          41.971    23790490.259    97422155.028       -1198.719          39.885  
G29  24124933.789   126773167.566       -1727.281          46.967    24124933.456    98791701.313       -1347.279          42.864  
> 2024  6 15 14 29 15.0000000  0  8
G05  22386187.649   117636298.729       -1853.661          38.620    22386187.331    91671528.800       -1445.856          35.899  
G12  23158408.435   121694211.433        -310.953          35.259    23158408.351    94833777.043        -242.543          32.529  
G15  24522987.968   128864886.845         320.838          40.156    24522988.347   100421737.704         250.253          37.101  
G18  25791075.805   135528511.853       -1616.772          45.819    25791075.607   105614560.241       -1261.082          40.967  
G21  21569510.095   113344771.909        1431.628          39.147    21569509.667    88327230.403        1116.670          35.357  
G24  22347292.153   117431908.319       -1222.521          40.413    22347292.002    91512252.274        -953.567          38.033  
G25  23790632.376   125016460.199       -1247.180          49.161    23790632.051    97422735.659        -972.801          46.854  
G29  24125076.623   126773918.145        -127.715          40.111    24125076.846    98792288.477         -99.618          35.525  
> 2024  6 15 14 29 45.0000000  0  7
G05  22386329.593   117637044.619       -2555.507          44.442    22386329.754    91672112.015       -1993.295          40.753  
G12  23158549.841   121694954.529       -2289.291          46.467    23158549.425    94834354.717       -1785.647          43.790  
G15  24523128.829   128865627.058        -343.674          47.902    24523129.085   100422314.025        -268.066          44.039  
G18  25791216.738   135529252.420        2685.541          38.117    25791216.844   105615138.607        2094.722          35.646  
G21  21569651.462   113345514.781       -2983.946          41.758    21569651.255    88327810.213       -2327.478          39.063  
G24  22347432.163   117432644.037        -275.812          45.311    22347432.632    91512828.133        -215.133          41.436  
G25  23790772.754   125017197.849        -449.166          43.168    23790772.361    97423310.224        -350.350          38.689  
> 2024  6 15 14 30 15.0000000  0  7
G05  22386469.767   117637781.233         570.264          47.364    22386470.051    91672686.528         444.806          43.958  
G12  23158689.773   121695689.830       -1366.523          43.100    23158689.398    94834927.927       -1065.888          38.431  
G15  24523268.876   128866362.972       -2844.811          38.434    24523268.603   100422885.336       -2218.952          34.672  
G18  25791357.785   135529993.620        1928.527          43.644    25791357.801   105615715.804        1504.251          40.087  
G21  21569790.565   113346245.745        2981.673          41.538    21569790.875    88328381.939        2325.705          38.128  
G24  22347571.573   117433376.637       -2372.401          37.412    22347571.275    91513395.890       -1850.473          33.425  
G25  23790912.257   125017930.944       -2779.817          36.321    23790912.255    97423883.111       -2168.257          32.003  
> 2024  6 15 14 30 45.0000000  0  7
G05  22386606.813   117638501.382        2216.205          41.930    22386607.155    91673247.977        1728.640          38.062  
G12  23158827.262   121696412.308       -2690.329          39.006    23158827.430    94835493.169       -2098.457          34.363  
G15  24523406.682   128867087.135         780.134          46.990    24523406.617   100423450.512         608.504          44.949  
G18  25791494.504   135530712.056        2048.434          36.702    25791494.913   105616277.281        1597.779          34.240  
G21  21569929.181   113346974.148        1232.470          41.232    21569928.844    88328946.946         961.326          37.862  
G24  22347710.002   117434104.063         596.266          46.194    22347710.077    91513964.281         465.087          41.876  
G25  23791051.080   125018660.425        1726.304          39.008    23791051.563    97424453.575        1346.517          34.495  
> 2024  6 15 14 31 15.0000000  0  7
G05  22386743.408   117639219.167       -2108.427          43.079    22386743.194    91673805.062       -1644.573          39.448  
G12  23158963.404   121697127.718       -1868.086          45.462    23158963.207    94836049.167       -1457.107          41.136  
G15  24523543.623   128867806.747        1231.367          47.171    24523543.289   100424010.201         960.466          42.709  
G18  25791631.408   135531431.466       -2777.882          42.534    25791630.897   105616834.130       -2166.748          37.912  
G21  21570064.259   113347683.973        -258.432          45.837    21570063.890    88329499.966        -201.577          43.374  
G24  22347844.533   117434811.002        -968.633          45.391    22347844.188    91514513.447        -755.533          40.834  
G25  23791187.138   125019375.388       -1100.033          45.781    23791187.174    97425008.881        -858.026          43.673  
> 2024  6 15 14 31 45.0000000  0  7
G05  22386876.968   117639921.026       -1275.726          38.412    22386877.669    91674355.742        -995.066          34.131  
G12  23159097.830   121697834.100       -2001.811          39.492    23159098.091    94836601.523       -1561.413          37.324  
G15  24523676.562   128868505.324       -1534.815          41.181    24523676.483   100424555.617       -1197.156          38.656  
G18  25791764.517   135532130.927        1098.807          42.465    25791764.328   105617380.535         857.070          38.551  
G21  21570198.178   113348387.699        2393.451          41.979    21570198.090    88330049.521        1866.892          39.757  
G24  22347981.291   117435529.634       -1205.075          49.430    22347981.170    91515074.395        -939.958          46.524  
G25  23791321.876   125020083.424       -2360.080          40.720    23791321.717    97425559.862       -1840.863          36.623  
> 2024  6 15 14 32 15.0000000  0  7
G05  22387009.612   117640618.032       -1353.118          43.489    22387009.417    91674895.224       -1055.432          41.342  
G12  23159229.426   121698525.618        2424.932          39.293    23159229.550    94837139.833        1891.447          36.236  
G15  24523808.431   128869198.261        1066.587          45.814    24523808.122   100425094.667         831.938          41.929  
G18  25791897.478   135532829.621       -1146.403          41.612    25791897.051   105617924.034        -894.194          39.342  
G21  21570330.654   113349083.853       -1946.160          36.982    21570329.878    88330589.176       -1518.004          33.390  
G24  22348112.692   117436220.129       -1458.179          47.370    22348112.152    91515610.781       -1137.380          43.131  
G25  23791452.755   125020771.183        2777.360          37.111    23791453.337    97426098.838        2166.341          32.939  
> 2024  6 15 14 32 45.0000000  0  8
G05  22387139.564   117641300.913        -805.350          46.860    22387139.935    91675429.711        -628.173          43.496  
G12  23159359.332   121699208.246         507.361          47.336    23159359.465    94837671.847         395.741          44.635  
G15  24523939.705   128869888.103         368.444          48.729    24523939.725   100425633.603         287.387          44.257  
G18  25792027.037   135533510.438        -550.225          37.097    25792027.278   105618457.321        -429.175          33.619  
G21  21570461.536   113349771.614       -2186.016          41.805    21570461.299    88331127.335       -1705.092          36.967  
G24  22348240.961   117436894.178       -2072.863          41.223    22348241.243    91516139.414       -1616.833          37.999  
G25  23791582.803   125021454.560        -776.820          41.651    23791583.365    97426631.299        -605.920          39.353  
G29  24126026.433   126778909.255        2867.055          40.380    24126026.277    98796176.406        2236.303          38.014  
> 2024  6 15 14 33 15.0000000  0  8
G05  22387266.450   117641967.685         836.958          49.566    22387266.706    91675948.842         652.827          44.600  
G12  23159487.238   121699880.384        1978.907          43.313    23159486.768    94838193.143        1543.547          40.614  
G15  24524066.295   128870553.292         575.890          39.159    24524067.179   100426155.519         449.194          35.538  
G18  25792154.233   135534178.832        2198.687          36.977    25792153.900   105618975.854        1714.976          33.210  
G21  21570588.551   113350439.050       -2239.449          41.314    21570588.633    88331648.787       -1746.770          37.970  
G24  22348368.726   117437565.569        -287.967          38.323    22348368.363    91516659.954        -224.615          33.597  
G25  23791709.931   125022122.593         860.044          35.467    23791710.512    97427151.975         670.834          32.188  
G29  24126154.775   126779583.693        -338.626          48.489    24126154.700    98796702.300        -264.128          46.110  
> 2024  6 15 14 33 45.0000000  0  7
G05  22387390.790   117642621.061       -1048.887          49.919    22387390.466    91676455.632        -818.132          46.103  
G12  23159612.844   121700540.440        2116.756          44.764    23159612.901    94838709.652        1651.070          42.119  
G15  24524190.869   128871207.931        -966.410          41.802    24524190.753   100426661.562        -753.800          38.522  
G18  25792278.966   135534834.286       -2084.166          48.845    25792279.483   105619490.110       -1625.650          46.565  
G21  21570713.885   113351097.673        1870.616          43.346    21570713.556    88332160.336        1459.080          40.357  
G24  22348494.548   117438226.745         992.043          46.254    22348494.872    91517178.007         773.794          41.349  
G25  23791834.837   125022778.957         467.511          38.191    23791834.718    97427660.593         364.659          35.866  
> 2024  6 15 14 34 15.0000000  0  7
G05  22387513.153   117643264.084         444.600          47.108    22387513.610    91676959.889         346.788          42.653  
G12  23159734.181   121701178.033       -2842.477          48.936    23159734.295    94839206.769       -2217.132          46.395  
G15  24524313.598   128871852.845        -961.052          35.092    24524313.863   100427165.687        -749.621          31.889  
G18  25792402.169   135535481.717       -2816.057          46.192    25792402.237   105619992.790       -2196.525          43.169  
G21  21570835.176   113351735.042        1661.014          43.514    21570835.261    88332658.729        1295.591          41.042  
G24  22348616.171   117438865.840       -1367.383          44.929    22348615.848    91517673.418       -1066.559          42.110  
G25  23791957.731   125023424.753        -420.518          39.249    23791957.581    97428163.712        -328.004          35.247  
> 2024  6 15 14 34 45.0000000  0  7
G05  22387633.850   117643898.347       -2671.308          38.066    22387634.332    91677454.263       -2083.620          33.774  
G12  23159854.522   121701810.421         -15.688          41.460    23159854.777    94839700.160         -12.237          38.769  
G15  24524432.892   128872479.720        -874.997          40.956    24524432.876   100427653.043        -682.498          37.577  
G18  25792521.967   135536111.232        -424.294          41.066    25792521.809   105620482.421        -330.950          37.851  
G21  21570955.884   113352369.334        2685.686          41.901    21570955.779    88333152.240        2094.835          38.591  
G24  22348737.005   117439500.822        -597.301          36.180    22348737.346    91518170.939        -465.895          33.515  
G25  23792077.621   125024054.754         799.348          42.959    23792077.800    97428656.035         623.491          39.906  
> 2024  6 15 14 35 15.0000000  0  8
G05  22387750.710   117644512.408       -1816.369          44.036    22387750.738    91677930.936       -1416.768          41.505  
G12  23159971.769   121702426.522        1526.675          46.398    23159971.123    94840176.596        1190.806          42.705  
G15  24524550.224   128873096.280        2185.481          44.408    24524550.290   100428133.868        1704.675          41.082  
G18  25792638.555   135536723.893       -2662.967          42.610    25792638.433   105620960.016       -2077.114          40.439  
G21  21571072.784   113352983.622        2185.500          47.829    21571072.516    88333630.280        1704.690          44.441  
G24  22348852.851   117440109.564        2375.261          41.746    22348853.011    91518644.586        1852.703          38.781  
G25  23792194.403   125024668.437       -2628.758          36.553    23792194.625    97429134.413       -2050.431          32.410  
G29  24126638.378   126782124.951       -1513.538          41.566    24126638.040    98798681.575       -1180.559          39.090  
> 2024  6 15 14 35 45.0000000  0  8
G05  22387865.354   117645114.835        1646.789          45.183    22387865.755    91678401.949        1284.495          42.180  
G12  23160085.617   121703024.797        -680.615          38.780    23160086.078    94840647.310        -530.880          34.972  
G15  24524665.044   128873699.657         981.673          48.751    24524664.882   100428603.135         765.705          44.765  
G18  25792753.465   135537327.730       -2491.686          43.384    25792753.299   105621430.373       -1943.515          41.000  
G21  21571186.569   113353581.529        2982.985          48.687    21571186.941    88334098.867        2326.728          45.161  
G24  22348968.350   117440716.503        2707.016          40.126    22348968.370    91519116.988        2111.472          35.126  
G25  23792309.159   125025271.467        1728.721          42.615    23792308.683    97429601.481        1348.402          39.036  
G29  24126752.386   126782724.029         708.189          43.959    24126752.493    98799150.264         552.387          39.880  
> 2024  6 15 14 36 15.0000000  0  7
G05  22387976.303   117645697.855        -373.960          41.163    22387976.204    91678854.229        -291.688          37.830  
G12  23160197.013   121703610.174        -306.432          43.010    23160196.814    94841100.811        -239.017          39.603  
G15  24524776.438   128874285.004        2682.781          49.767    24524776.201   100429058.973        2092.569          46.621  
G18  25792862.911   135537902.840        1901.347          47.019    25792863.058   105621879.851        1483.051          43.095  
G21  21571298.641   113354170.463       -2384.462          47.688    21571298.787    88334556.860       -1859.880          43.399  
G24  22349079.039   117441298.176       -2115.908          41.562    22349079.240    91519571.003       -1650.408          38.209  
G25  23792420.126   125025854.577       -2680.459          42.530    23792420.212    97430058.231       -2090.758          39.405  
> 2024  6 15 14 36 45.0000000  0  7
G05  22388084.302   117646265.383        1288.226          40.029    22388084.353    91679297.105        1004.816          35.277  
G12  23160304.468   121704174.823        1553.047          42.037    23160303.980    94841539.625        1211.377          39.980  
G15  24524884.458   128874852.649        2641.356          44.133    24524883.998   100429500.410        2060.257          41.420  
G18  25792972.663   135538479.580         833.710          44.342    25792973.190   105622330.844         650.294          40.843  
G21  21571405.708   113354733.093         450.285          45.778    21571405.704    88334994.693         351.222          42.720  
G24  22349187.106   117441866.031        1009.289          42.852    22349186.631    91520010.791         787.246          39.220  
G25  23792528.532   125026424.224       -2877.994          48.100    23792528.818    97430502.942       -2244.835          44.980  
> 2024  6 15 14 37 15.0000000  0  7
G05  22388189.319   117646817.235       -1553.244          44.857    22388189.634    91679728.241       -1211.531          40.587  
G12  23160410.748   121704733.310        -968.716          44.642    23160410.968    94841977.743        -755.599          39.699  
G15  24524989.122   128875402.636       -2190.885          45.741    24524989.199   100429931.198       -1708.890          43.136  
G18  25793077.702   135539031.519       -1106.425          39.651    25793077.259   105622757.011        -863.012          36.231  
G21  21571512.138   113355292.375       -1283.335          47.932    21571512.557    88335432.260       -1001.001          45.112  
G24  22349292.599   117442420.375        -599.869          41.596    22349292.862    91520445.789        -467.898          39.036  
G25  23792633.266   125026974.587        1783.745          39.001    23792633.539    97430931.780        1391.321          35.709  
> 2024  6 15 14 37 45.0000000  0  8
G05  22388290.793   117647350.462       -2519.587          44.914    22388290.652    91680141.911       -1965.277          41.635  
G12  23160512.044   121705265.591       -2745.869          48.051    23160511.404    94842389.071       -2141.778          45.227  
G15  24525092.421   128875945.459       -2549.753          44.563    24525092.069   100430352.468       -1988.807          40.524  
G18  25793179.481   135539566.373         645.437          46.720    25793179.590   105623176.046         503.441          42.384  
G21  21571612.888   113355821.803         403.468          44.076    21571612.572    88335841.798         314.705          40.960  
G24  22349394.269   117442954.634         176.759          40.971    22349394.135    91520860.498         137.872          38.630  
G25  23792735.163   125027510.040        -678.076          43.425    23792735.146    97431347.860        -528.899          40.086  
G29  24127179.626   126784969.130        2498.873          42.368    24127180.047    98800901.107        1949.121          39.012  
> 2024  6 15 14 38 15.0000000  0  8
G05  22388390.557   117647874.706        2805.367          49.799    22388390.324    91680550.042        2188.187          46.149  
G12  23160610.539   121705783.186       -2054.969          45.643    23160610.482    94842794.759       -1602.875          42.559  
G15  24525189.878   128876457.614        1752.394          38.551    24525189.595   100430751.822        1366.867          34.834  
G18  25793276.247   135540074.872       -2221.373          48.264    25793276.524   105623572.993       -1732.671          44.113  
G21  21571711.135   113356338.073        -543.399          43.624    21571711.320    88336246.197        -423.851          41.401  
G24  22349492.055   117443468.500       -2229.992          47.436    22349491.676    91521259.931       -1739.394          43.132  
G25  23792834.052   125028029.709        2209.270          47.471    23792833.798    97431751.834        1723.230          44.985  
G29  24127277.972   126785485.927        2684.899          42.783    24127277.947    98801301.997        2094.221          40.195  
> 2024  6 15 14 38 45.0000000  0  7
G05  22388484.527   117648368.523         686.570          36.401    22388484.273    91680934.770         535.524          32.659  
G12  23160705.967   121706284.653        2412.005          40.064    23160706.044    94843186.093        1881.364          35.473  
G15  24525285.697   128876961.112        1626.134          38.970    24525285.793   100431145.765        1268.385          35.116  
G18  25793373.664   135540586.783         273.465          44.629    25793373.592   105623970.489         213.303          40.207  
G21  21571806.178   113356837.514        1131.681          37.371    21571805.889    88336633.456         882.712          34.351  
G24  22349588.250   117443974.006       -1084.102          49.820    22349588.080    91521654.717        -845.599          45.538  
G25  23792928.399   125028525.479       -1549.573          36.838    23792928.242    97432138.583       -1208.667          34.686  
> 2024  6 15 14 39 15.0000000  0  8
G05  22388576.442   117648851.499        2776.115          48.535    22388576.713    91681313.300        2165.370          44.371  
G12  23160797.208   121706764.107        2975.816          42.002    23160797.464    94843560.449        2321.137          39.732  
G15  24525375.667   128877433.883       -1555.628          43.750    24525375.899   100431514.741       -1213.390          39.958  
G18  25793464.511   135541064.156       -1285.510          35.123    25793464.637   105624343.315       -1002.698          32.329  
G21  21571897.762   113357318.777       -2728.546          35.767    21571897.498    88337008.589       -2128.266          32.902  
G24  22349678.686   117444449.226         299.143          47.380    22349678.392    91522024.526         233.331          44.994  
G25  23793020.497   125029009.446        2920.726          43.367    23793020.385    97432515.915        2278.166          39.560  
G29  24127463.983   126786463.391       -2766.516          45.704    24127464.104    98802064.296       -2157.883          43.257  
> 2024  6 15 14 39 45.0000000  0  7
G05  22388664.697   117649315.293       -1088.820          40.894    22388664.268    91681671.845        -849.279          37.113  
G12  23160884.361   121707222.078         -60.920          43.444    23160884.307    94843916.082         -47.518          40.450  
G15  24525464.359   128877899.947       -1153.933          48.482    24525464.652   100431878.171        -900.068          44.691  
G18  25793551.887   135541523.329        2832.341          43.677    25793551.900   105624700.660        2209.226          40.236  
G21  21571985.168   113357778.074        1647.637          40.703    21571985.265    88337367.992        1285.157          36.985  
G24  22349766.858   117444912.544        -353.769          41.282    22349766.685    91522386.102        -275.940          37.776  
G25  23793107.526   125029466.761        2090.262          45.911    23793107.427    97432872.333        1630.404          42.228  
> 2024  6 15 14 40 15.0000000  0  8
G05  22388747.702   117649751.452       -1960.905          48.682    22388747.548    91682012.898       -1529.506          44.366  
G12  23160968.999   121707666.825        1159.880          44.151    23160969.080    94844263.232         904.706          40.477  
G15  24525548.341   128878341.283       -1214.313          39.335    24525548.465   100432221.413        -947.164          36.384  
G18  25793635.452   135541962.459        1772.432          39.102    25793635.777   105625044.143        1382.497          35.963  
G21  21572071.046   113358229.353        2727.653          47.069    21572070.984    88337719.026        2127.569          42.927  
G24  22349850.822   117445353.778       -1461.336          42.186    22349850.933    91522731.105       -1139.842          37.387  
G25  23793192.040   125029910.871         694.062          43.802    23793192.061    97433218.937         541.369          40.209  
G29  24127636.024   126787367.436        -520.192          45.760    24127636.439    98802770.031        -405.750          43.745  
> 2024  6 15 14 40 45.0000000  0  7
G05  22388828.830   117650177.774         917.357          48.210    22388828.401    91682343.985         715.538          43.942  
G12  23161049.445   121708089.577       -2645.024          46.531    23161049.319    94844591.802       -2063.119          42.315  
G15  24525628.621   128878763.116        2528.825          41.268    24525628.987   100432551.115        1972.484          39.159  
G18  25793716.994   135542390.916       -1882.130          46.235    25793717.166   105625377.416       -1468.062          44.123  
G21  21572150.337   113358646.028        2570.729          40.026    21572149.925    88338042.284        2005.169          36.453  
G24  22349931.746   117445779.009          25.276          39.093    22349931.843    91523062.413          19.715          34.899  
G25  23793272.065   125030331.386       -2915.495          40.057    23793271.940    97433546.041       -2274.086          37.477  
> 2024  6 15 14 41 15.0000000  0  7
G05  22388905.776   117650582.094        1961.939          42.729    22388906.157    91682662.404        1530.312          40.175  
G12  23161126.397   121708493.946       -1511.717          38.912    23161126.442    94844907.643       -1179.140          34.050  
G15  24525704.859   128879163.753       -2931.386          44.805    24525704.821   100432861.674       -2286.481          42.451  
G18  25793792.938   135542790.015          15.123          48.427    25793792.863   105625687.393          11.796          46.075  
G21  21572227.478   113359051.375         687.753          38.287    21572227.593    88338360.336         536.447          34.044  
G24  22350007.708   117446178.175         295.407          42.062    22350007.277    91523371.320         230.418          39.407  
G25  23793349.129   125030736.378        2238.810          36.228    23793348.687    97433860.314        1746.272          33.994  
> 2024  6 15 14 41 45.0000000  0  7
G05  22388978.504   117650964.302        2417.329          38.032    22388978.329    91682957.940        1885.517          33.469  
G12  23161198.084   121708870.651        1301.508          42.332    23161198.346    94845202.066        1015.176          40.166  
G15  24525778.139   128879548.820         383.467          43.382    24525778.019   100433161.413         299.104          41.317  
G18  25793865.788   135543172.822       -1692.592          36.095    25793865.375   105625984.342       -1320.222          32.472  
G21  21572300.774   113359436.549        2916.823          42.081    21572300.730    88338659.835        2275.122          39.675  
G24  22350080.280   117446559.524        2782.695          40.617    22350080.534    91523671.302        2170.502          35.866  
G25  23793421.642   125031117.408        2784.866          48.118    23793422.041    97434160.708        2172.196          45.762  
> 2024  6 15 14 42 15.0000000  0  7
G05  22389046.289   117651320.493        2872.346          47.522    22389046.321    91683236.342        2240.430          44.133  
G12  23161267.392   121709234.840        -724.341          38.445    23161267.223    94845484.126        -564.986          35.880  
G15  24525847.096   128879911.162       -2806.696          44.903    24525846.568   100433442.114       -2189.223          40.236  
G18  25793934.504   135543533.921         563.665          41.697    25793934.218   105626266.231         439.659          38.962  
G21  21572369.010   113359795.118         238.559          46.316    21572369.037    88338939.541         186.076          41.335  
G24  22350149.604   117446923.848         456.662          43.662    22350149.682    91523954.455         356.196          40.951  
G25  23793491.532   125031484.646         127.506          41.203    23793491.472    97434445.024          99.455          37.428  
> 2024  6 15 14 42 45.0000000  0  8
G05  22389110.797   117651659.460         -26.275          49.584    22389111.214    91683502.101         -20.495          45.227  
G12  23161331.950   121709574.105       -2104.694          40.647    23161331.960    94845749.210       -1641.662          36.099  
G15  24525910.922   128880246.582        1834.657          48.721    24525910.195   100433702.672        1431.032          45.049  
G18  25793999.416   135543875.022       -1779.980          44.701    25793999.929   105626535.327       -1388.384          42.423  
G21  21572433.116   113360131.974       -1389.230          45.105    21572432.629    88339199.942       -1083.600          42.541  
G24  22350214.226   117447263.391         353.103          42.191    22350214.411    91524219.529         275.420          37.320  
G25  23793556.338   125031825.217        2772.465          36.760    23793556.681    97434712.043        2162.523          34.032  
G29  24127998.899   126789274.297        2490.759          43.281    24127998.946    98804254.480        1942.792          39.680  
> 2024  6 15 14 43 15.0000000  0  8
G05  22389171.584   117651978.903        2296.872          41.990    22389171.740    91683749.944        1791.560          37.705  
G12  23161392.609   121709892.855       -1122.468          35.686    23161392.933    94845998.895        -875.525          33.637  
G15  24525971.128   128880562.936        1320.072          39.428    24525971.199   100433952.503        1029.656          35.719  
G18  25794059.770   135544192.183        2660.787          40.063    25794059.799   105626780.493        2075.414          35.893  
G21  21572493.717   113360450.418        1396.633          40.283    21572493.957    88339451.104        1089.374          37.730  
G24  22350275.922   117447587.592        2743.421          42.859    22350275.985    91524471.680        2139.869          38.405  
G25  23793615.807   125032137.714       -2175.051          44.461    23793615.963    97434954.807       -1696.540          41.804  
G29  24128059.583   126789593.186         826.372          49.009    24128059.959    98804504.328         644.570          46.961  
> 2024  6 15 14 43 45.0000000  0  7
G05  22389228.122   117652275.997         176.506          39.121    22389228.177    91683981.071         137.675          34.682  
G12  23161448.779   121710187.999        2458.640          36.605    23161448.919    94846228.175        1917.739          34.029  
G15  24526027.289   128880858.059       -1396.052          40.953    24526027.075   100434181.315       -1088.920          37.258  
G18  25794116.553   135544490.554        1104.250          47.718    25794116.215   105627011.513         861.315          43.439  
G21  21572550.602   113360749.358         316.209          35.842    21572550.785    88339683.807         246.643          32.342  
G24  22350330.394   117447873.859         395.140          47.869    22350330.698    91524695.739         308.209          45.742  
G25  23793672.437   125032435.317        2325.326          42.133    23793672.550    97435186.528        1813.754          37.356  
> 2024  6 15 14 44 15.0000000  0  7
G05  22389280.325   117652550.313        2572.598          39.717    22389280.712    91684196.197        2006.627          35.461  
G12  23161501.327   121710464.136       -2538.375          37.437    23161501.361    94846442.939       -1979.933          34.269  
G15  24526080.801   128881139.255        1533.656          37.099    24526081.282   100434403.281        1196.251          33.597  
G18  25794168.608   135544764.098        -377.470          47.580    25794168.331   105627224.958        -294.427          42.716  
G21  21572601.757   113361018.179       -2822.246          39.100    21572602.106    88339893.962       -2201.352          36.032  
G24  22350383.940   117448155.223        1078.169          44.910    22350384.297    91524915.230         840.972          40.516  
G25  23793724.396   125032708.333       -2074.674          45.675    23793724.068    97435397.484       -1618.246          42.725  
> 2024  6 15 14 44 45.0000000  0  7
G05  22389329.456   117652808.504        -331.585          46.420    22389329.559    91684396.229        -258.636          43.127  
G12  23161548.890   121710714.081       -2380.242          36.344    23161548.509    94846635.987       -1856.589          31.991  
G15  24526128.503   128881389.927        -517.140          46.688    24526128.443   100434596.395        -403.369          41.709  
G18  25794216.479   135545015.668        1111.896          37.543    25794216.451   105627422.003         867.279          35.105  
G21  21572650.651   113361275.106       -1201.486          46.740    21572650.188    88340090.879        -937.159          42.577  
G24  22350430.760   117448401.259        -252.830          37.032    22350431.060    91525106.718        -197.208          32.508  
G25  23793771.727   125032957.063        -358.662          41.459    23793771.921    97435593.437        -279.757          37.676  
> 2024  6 15 14 45 15.0000000  0  8
G05  22389371.654   117653030.260       -1794.891          39.713    22389372.425    91684571.757       -1400.015          36.838  
G12  23161592.978   121710945.750         455.276          38.636    23161592.585    94846816.496         355.115          35.458  
G15  24526172.661   128881621.981         553.362          43.184    24526172.504   100434776.826         431.623          38.325  
G18  25794259.413   135545241.271        -369.270          39.370    25794259.218   105627597.109        -288.031          34.983  
G21  21572693.680   113361501.217         800.016          38.630    21572693.422    88340267.891         624.013          34.263  
G24  22350476.542   117448641.855        -124.592          41.012    22350475.868    91525290.204         -97.182          36.937  
G25  23793815.324   125033186.144        -842.823          48.433    23793814.908    97435769.480        -657.402          46.178  
G29  24128260.262   126790647.712        -869.947          44.705    24128261.089    98805327.974        -678.559          40.673  
> 2024  6 15 14 45 45.0000000  0  8
G05  22389412.015   117653242.324        1777.386          36.589    22389412.188    91684734.597        1386.361          32.349  
G12  23161631.863   121711150.088       -1673.810          40.612    23161631.422    94846975.525       -1305.571          36.540  
G15  24526212.593   128881831.838        -103.373          39.431    24526212.705   100434941.460         -80.631          34.938  
G18  25794299.518   135545452.003        -941.600          46.764    25794299.243   105627761.026        -734.448          44.471  
G21  21572733.479   113361710.338       -2596.954          35.670    21572733.464    88340431.873       -2025.624          32.641  
G24  22350515.269   117448845.356        2579.535          46.107    22350514.891    91525450.002        2012.037          43.114  
G25  23793855.077   125033395.051        1786.535          44.446    23793855.248    97435934.690        1393.497          41.260  
G29  24128299.493   126790853.860        -302.550          41.443    24128299.702    98805486.086        -235.989          38.608  
> 2024  6 15 14 46 15.0000000  0  7
G05  22389445.824   117653419.982         221.334          40.487    22389445.872    91684872.537         172.641          36.475  
G12  23161666.320   121711331.162       -1119.575          40.830    23161666.204    94847117.958        -873.269          37.774  
G15  24526246.320   128882009.039        1041.533          47.009    24526246.669   100435080.539         812.396          42.993  
G18  25794334.474   135545635.709       -2298.307          40.600    25794334.662   105627906.075       -1792.679          36.810  
G21  21572768.149   113361892.529         -79.979          43.061    21572768.755    88340576.381         -62.383          40.541  
G24  22350549.823   117449026.927       -1877.409          47.630    22350549.383    91525591.236       -1464.379          42.774  
G25  23793890.289   125033580.079        -696.335          43.424    23793890.113    97436077.440        -543.141          39.949  
> 2024  6 15 14 46 45.0000000  0  8
G05  22389477.060   117653584.133       -2814.836          46.416    22389476.998    91684999.998       -2195.572          42.803  
G12  23161698.539   121711500.479        1455.110          46.489    23161698.399    94847249.792        1134.985          44.146  
G15  24526277.414   128882172.414        -798.829          47.339    24526277.876   100435208.340        -623.087          43.700  
G18  25794365.500   135545798.736        1980.424          46.270    25794365.162   105628031.001        1544.731          42.921  
G21  21572798.733   113362053.262        -365.581          49.909    21572798.768    88340699.290        -285.153          45.477  
G24  22350579.872   117449184.820        1264.524          44.492    22350579.955    91525716.446         986.329          41.872  
G25  23793921.314   125033743.116        -895.107          39.216    23793921.057    97436204.162        -698.184          35.104  
G29  24128365.171   126791199.015        2148.101          49.782    24128365.113    98805753.941        1675.519          44.894  
> 2024  6 15 14 47 15.0000000  0  8
G05  22389504.865   117653730.227        2202.286          36.903    22389505.017    91685114.722        1717.783          32.769  
G12  23161724.901   121711638.983        1057.407          42.342    23161724.691    94847357.455         824.778          39.099  
G15  24526302.824   128882305.963        2280.750          36.396    24526302.583   100435309.511        1778.985          31.587  
G18  25794390.667   135545931.007       -1036.264          35.037    25794390.741   105628135.696        -808.286          30.844  
G21  21572824.787   113362190.161        -850.664          35.950    21572824.582    88340805.001        -663.518          32.661  
G24  22350606.594   117449325.254        1970.062          40.066    22350606.252    91525824.123        1536.648          36.610  
G25  23793947.080   125033878.519       -2709.544          36.494    23793947.150    97436311.005       -2113.445          34.121  
G29  24128391.838   126791339.131       -2995.944          49.370    24128391.973    98805863.952       -2336.837          46.975  
> 2024  6 15 14 47 45.0000000  0  8
G05  22389525.920   117653840.905       -1355.883          44.819    22389525.920    91685200.336       -1057.589          40.107  
G12  23161746.546   121711752.747       -1166.945          45.492    23161746.590    94847447.146        -910.217          41.381  
G15  24526325.861   128882427.015       -2203.801          38.393    24526325.843   100435404.763       -1718.965          34.306  
G18  25794413.901   135546053.054        -466.116          36.983    25794414.167   105628231.648        -363.571          32.790  
G21  21572847.639   113362310.245        2285.934          37.057    21572847.712    88340899.706        1783.028          34.658  
G24  22350628.569   117449440.720         183.050          35.127    22350628.379    91525914.730         142.779          30.960  
G25  23793969.093   125033994.179        -529.741          45.298    23793969.175    97436401.203        -413.198          42.997  
G29  24128413.302   126791451.915        -695.809          49.449    24128413.237    98805951.017        -542.731          46.618  
> 2024  6 15 14 48 15.0000000  0  7
G05  22389542.630   117653928.703        1327.078          39.274    22389542.695    91685269.020        1035.121          34.733  
G12  23161763.863   121711843.730         641.561          37.830    23161763.527    94847516.498         500.418          33.478  
G15  24526342.722   128882515.611        -684.687          38.616    24526342.648   100435473.575        -534.056          33.950  
G18  25794431.094   135546143.425       -1101.164          40.803    25794431.260   105628301.629        -858.908          37.164  
G21  21572864.885   113362400.877        2924.198          36.095    21572864.842    88340969.869        2280.874          33.448  
G24  22350646.699   117449535.979        -612.150          39.297    22350646.580    91525989.254        -477.477          36.027  
G25  23793986.037   125034083.230         225.932          37.290    23793986.142    97436470.692         176.227          32.527  
> 2024  6 15 14 48 45.0000000  0  8
G05  22389554.990   117653993.640         805.765          47.518    22389554.944    91685319.176         628.497          43.422  
G12  23161776.353   121711909.352       -2652.564          36.293    23161776.051    94847567.782       -2069.000          32.467  
G15  24526355.175   128882581.074        1443.949          36.792    24526355.054   100435524.365        1126.280          34.300  
G18  25794444.057   135546211.541        1697.923          45.811    25794444.135   105628354.365        1324.380          41.468  
G21  21572877.352   113362466.401        1628.582          35.440    21572877.436    88341021.435        1270.294          33.249  
G24  22350658.321   117449597.051       -2537.580          41.828    22350658.096    91526036.438       -1979.312          38.127  
G25  23793999.216   125034152.482       -2382.571          43.609    23793999.180    97436524.070       -1858.405          40.082  
G29  24128444.434   126791615.527       -1532.691          42.076    24128444.307    98806078.247       -1195.499          37.283  
> 2024  6 15 14 49 15.0000000  0  7
G05  22389562.793   117654034.637        1443.995          41.291    22389562.657    91685350.776        1126.316          37.130  
G12  23161784.813   121711953.829        -763.151          42.531    23161784.967    94847604.283        -595.258          38.118  
G15  24526365.072   128882633.063       -2586.441          41.976    24526364.956   100435564.948       -2017.424          38.995  
G18  25794451.780   135546252.128       -1795.973          43.457    25794451.641   105628385.111       -1400.859          40.065  
G21  21572885.351   113362508.405        1635.680          37.931    21572885.762    88341055.526        1275.830          35.196  
G24  22350667.353   117449644.525       -1602.014          40.196    22350667.681    91526075.662       -1249.571          35.343  
G25  23794008.571   125034201.637        2094.036          45.908    23794008.864    97436563.743        1633.348          43.194  
> 2024  6 15 14 49 45.0000000  0  8
G05  22389569.010   117654067.307       -2145.759          39.197    22389569.219    91685377.640       -1673.692          34.661  
G12  23161787.800   121711969.535        -249.252          46.218    23161787.489    94847614.611        -194.416          42.307  
G15  24526367.181   128882644.156       -2626.303          44.937    24526367.351   100435574.744       -2048.516          40.384  
G18  25794456.155   135546275.115        1991.399          39.894    25794455.946   105628402.729        1553.291          35.063  
G21  21572890.271   113362534.280       -2346.163          36.585    21572890.024    88341072.990       -1830.007          34.223  
G24  22350670.169   117449659.336        -288.498          41.950    22350670.247    91526086.186        -225.028          37.527  
G25  23794011.448   125034216.766         619.815          38.225    23794011.553    97436574.743         483.456          34.092  
G29  24128456.201   126791677.355       -2706.296          39.483    24128456.280    98806127.267       -2110.911          34.626  
> 2024  6 15 14 50 15.0000000  0  8
G05  22389566.485   117654054.041       -2431.648          36.529    22389566.526    91685366.605       -1896.686          34.344  
G12  23161788.147   121711971.336       -1811.202          41.009    23161787.871    94847616.159       -1412.737          38.757  
G15  24526366.121   128882638.564       -2550.077          49.957    24526366.260   100435570.285       -1989.060          45.530  
G18  25794455.890   135546273.736        1853.323          36.838    25794455.980   105628402.867        1445.592          32.066  
G21  21572888.345   113362524.153         -23.242          40.741    21572888.094    88341065.090         -18.128          36.016  
G24  22350669.993   117449658.409       -2108.212          44.212    22350669.672    91526083.823       -1644.405          40.715  
G25  23794011.501   125034217.024       -2473.671          40.745    23794011.125    97436573.000       -1929.463          36.354  
G29  24128455.087   126791671.533         261.940          35.293    24128454.736    98806120.960         204.313          31.854  
> 2024  6 15 14 50 45.0000000  0  8
G05  22389561.589   117654028.329       -1070.373          39.057    22389561.988    91685348.029        -834.891          36.969  
G12  23161783.100   121711944.816        1851.923          42.075    23161782.852    94847595.635        1444.500          39.377  
G15  24526362.152   128882617.724       -1553.083          43.005    24526362.277   100435553.945       -1211.405          38.713  
G18  25794450.569   135546245.758        2895.988          40.826    25794451.420   105628384.180        2258.870          38.305  
G21  21572883.986   113362501.247        1428.631          40.382    21572883.593    88341046.647        1114.332          37.327  
G24  22350664.697   117449630.563        2690.211          47.550    22350664.991    91526064.641        2098.365          43.924  
G25  23794006.011   125034188.187       -2662.992          44.025    23794006.351    97436553.445       -2077.134          41.030  
G29  24128449.266   126791640.901        -955.446          37.662    24128449.461    98806099.330        -745.248          35.483  
> 2024  6 15 14 51 15.0000000  0  8
G05  22389551.370   117653974.609        1646.199          47.697    22389551.859    91685306.528        1284.035          44.576  
G12  23161773.794   121711895.918       -2393.807          39.526    23161773.909    94847559.009       -1867.169          34.680  
G15  24526352.656   128882567.793         895.082          37.613    24526353.108   100435516.411         698.164          32.827  
G18  25794440.407   135546192.358         533.701          37.630    25794440.247   105628338.454         416.287          35.248  
G21  21572874.163   113362449.600        2692.189          40.874    21572874.940    88341011.221        2099.907          38.777  
G24  22350654.424   117449576.569        2805.190          38.313    22350653.778    91526018.737        2188.048          35.891  
G25  23793996.314   125034137.220        2894.278          37.518    23793996.412    97436512.739        2257.537          33.391  
G29  24128439.656   126791590.397        -320.220          38.978    24128439.656    98806059.201        -249.772          36.208  
> 2024  6 15 14 51 45.0000000  0  7
G05  22389538.187   117653905.341        -370.679          41.295    22389538.343    91685251.207        -289.130          36.649  
G12  23161758.928   121711817.811        1972.842          46.831    23161758.482    94847495.823        1538.817          44.154  
G15  24526337.362   128882487.455       -2799.523          35.301    24526337.352   100435451.896       -2183.628          32.276  
G18  25794426.442   135546118.975       -2549.985          49.128    25794426.712   105628283.011       -1988.989          44.172  
G21  21572860.828   113362379.536        -412.060          44.805    21572860.577    88340952.399        -321.407          42.644  
G24  22350640.556   117449503.732        -544.321          43.312    22350640.889    91525965.963        -424.570          39.330  
G25  23793982.150   125034062.801        -642.587          43.245    23793982.050    97436453.931        -501.218          41.233  
> 2024  6 15 14 52 15.0000000  0  7
G05  22389519.431   117653806.796         601.293          37.995    22389519.612    91685174.496         469.009          35.120  
G12  23161741.473   121711726.087       -1149.880          40.962    23161741.032    94847424.376        -896.906          38.689  
G15  24526319.327   128882392.676        2312.956          40.541    24526319.105   100435377.175        1804.106          37.146  
G18  25794407.693   135546020.464       -2630.164          46.284    25794407.630   105628204.869       -2051.528          43.252  
G21  21572840.350   113362271.933         538.359          43.304    21572840.649    88340870.785         419.920          40.048  
G24  22350621.655   117449404.382        -151.054          48.225    22350621.534    91525886.710        -117.822          43.516  
G25  23793963.503   125033964.795        2402.730          47.007    23793963.319    97436377.216        1874.130          44.646  
> 2024  6 15 14 52 45.0000000  0  8
G05  22389497.268   117653690.344        2832.989          47.127    22389497.489    91685083.908        2209.732          42.162  
G12  23161716.017   121711592.328         763.357          47.512    23161715.985    94847321.827         595.419          42.769  
G15  24526297.048   128882275.612        -615.870          39.892    24526296.994   100435286.636        -480.379          35.272  
G18  25794384.755   135545899.907         135.372          41.294    25794384.609   105628110.605         105.590          37.530  
G21  21572818.658   113362157.928        2549.569          43.440    21572818.857    88340781.563        1988.664          39.833  
G24  22350599.310   117449286.975        -701.739          42.284    22350599.246    91525795.435        -547.357          39.458  
G25  23793941.020   125033846.672        1161.968          35.582    23793941.227    97436286.753         906.335          32.869  
G29  24128384.566   126791300.901        2382.188          35.303    24128384.671    98805834.024        1858.107          32.462  
> 2024  6 15 14 53 15.0000000  0  8
G05  22389469.600   117653544.918        2834.980          38.419    22389469.446    91684969.081        2211.284          34.097  
G12  23161689.774   121711454.426         629.875          36.339    23161689.155    94847211.944         491.302          33.118  
G15  24526268.522   128882125.710        -756.539          35.843    24526268.551   100435170.148        -590.100          31.714  
G18  25794356.407   135545750.967         145.717          43.530    25794356.689   105627996.289         113.659          40.928  
G21  21572791.244   113362013.893       -2696.644          40.406    21572791.334    88340668.863       -2103.383          37.013  
G24  22350571.219   117449139.368        1087.046          38.629    22350570.894    91525679.337         847.896          33.748  
G25  23793912.497   125033696.783        -934.506          47.565    23793912.467    97436169.006        -728.915          45.294  
G29  24128357.280   126791157.539        2122.928          46.697    24128357.327    98805722.066        1655.884          44.022  
